[
    {
        "address": "Av. Calouste Gulbenkian",
        "area": "east",
        "entrance fee": "?",
        "id": "1",
        "location": [
            0,
            0
        ],
        "name": "Associação de Natação de Coimbra",
        "openhours": "?",
        "phone": "01223902088",
        "postcode": "cb58nt",
        "pricerange": "?",
        "type": "swimmingpool",
        "idMultiWoz": "1",
        "nameMultiWoz": "abbey pool and astroturf pitch"
    },
    {
        "address": "Rua Pedro Nunes",
        "area": "centre",
        "entrance fee": "?",
        "id": "2",
        "location": [
            40.193615,
            -8.412012
        ],
        "name": "Teatrão",
        "openhours": "?",
        "phone": "239714013",
        "postcode": "3030-193",
        "pricerange": "?",
        "type": "theatre",
        "idMultiWoz": "2",
        "nameMultiWoz": "adc theatre"
    },
    {
        "address": "Paço das Escolas da Universidade de Coimbra",
        "area": "centre",
        "entrance fee": "free",
        "id": "3",
        "location": [
            40.207175,
            -8.426411
        ],
        "name": "Biblioteca Joanina",
        "openhours": "Está aberto, todos os dias, das 09:00 às 16:40 e às segundas-feiras das 10:00 às 16:40.",
        "phone": "239247280",
        "postcode": "3000-295",
        "pricerange": "free",
        "type": "architecture",
        "idMultiWoz": "3",
        "nameMultiWoz": "all saints church"
    },
    {
        "address": "Rua Venâncio Rodrigues 9",
        "area": "centre",
        "entrance fee": "?",
        "id": "4",
        "location": [
            40.208206,
            -8.420425
        ],
        "name": "NB Club",
        "openhours": "Abre das 23:59h às 07:30h, exceto segundas-feiras e quartas-feiras.",
        "phone": "916737611",
        "postcode": "3000-409",
        "pricerange": "moderate",
        "type": "nightclub",
        "idMultiWoz": "4",
        "nameMultiWoz": "ballare"
    },
    {
        "address": "Largo Dr. José Rodrigues",
        "area": "centre",
        "entrance fee": "free",
        "id": "5",
        "location": [
            40.209083,
            -8.425530
        ],
        "name": "Museu nacional Machado de Castro",
        "openhours": "Aberto todos os dias das 10:00h às 18:00h, exceto às segundas-feiras.",
        "phone": "239853070",
        "postcode": "3000-236",
        "pricerange": "free",
        "type": "museum",
        "idMultiWoz": "5",
        "nameMultiWoz": "Broughton House Gallery"
    },
    {
        "address": "Av. Elísio de Moura 53",
        "area": "south",
        "entrance fee": "free",
        "id": "6",
        "location": [
            40.205916,
            -8.401204
        ],
        "name": "Galeria sete",
        "openhours": "aberto de segunda a sábado das 11:00 às 13:00 e das 14:30 às 19:30, exceto aos domingos.",
        "phone": "967009613",
        "postcode": "3030-183",
        "pricerange": "free",
        "type": "museum",
        "idMultiWoz": "6",
        "nameMultiWoz": "byard art"
    },
    {
        "address": "Rua António Augusto Gonçalves 67",
        "area": "west",
        "entrance fee": "free",
        "id": "7",
        "location": [
            40.201728,
            -8.433514
        ],
        "name": "Galeria Santa Clara",
        "openhours": "Aberto todos os dias das 13:00h às 01:00h, exceto às segundas-feiras.",
        "phone": "239441657",
        "postcode": "3040-241",
        "pricerange": "free",
        "type": "museum",
        "idMultiWoz": "7",
        "nameMultiWoz": "cafe jello gallery"
    },
    {
        "address": "Av. Emídio Navarro",
        "area": "east",
        "entrance fee": "?",
        "id": "8",
        "location": [
            52.21247,
            0.15619
        ],
        "name": "O Basófias",
        "openhours": "?",
        "phone": "01223902112",
        "postcode": "cb58sx",
        "pricerange": "?",
        "type": "boat",
        "idMultiWoz": "8",
        "nameMultiWoz": "camboats"
    },
    {
        "address": "Rotunda das Lages, Parque Verde do Mondego",
        "area": "west",
        "entrance fee": "Depende da idade, os preços vão desde os 8€ aos 14,40€",
        "id": "9",
        "location": [
            40.197218,
            -8.429316
        ],
        "name": "Exploratório - Centro Ciência Viva",
        "openhours": "Aberto todos os dias das 10:00 às 13:00 e das 14:00 às 18:00.",
        "phone": "239703897",
        "postcode": "3041-901",
        "pricerange": "moderate",
        "type": "museum",
        "idMultiWoz": "9",
        "nameMultiWoz": "cambridge and county folk museum"
    },
    {
        "address": "R. Padre António Vieira",
        "area": "centre",
        "entrance fee": "?",
        "id": "10",
        "location": [
            40.209600,
            -8.421676
        ],
        "name": "Coimbra Impro",
        "openhours": "?",
        "phone": "?",
        "postcode": "3000-350",
        "pricerange": "?",
        "type": "theatre",
        "idMultiWoz": "10",
        "nameMultiWoz": "cambridge arts theatre"
    },
    {
        "address": "R. Infantaria 23 312",
        "area": "east",
        "entrance fee": "free",
        "id": "11",
        "location": [
            40.206228,
            -8.419311
        ],
        "name": "Casa Museu Bissaya Barreto",
        "openhours": "?",
        "phone": "239853800",
        "postcode": "3000-219",
        "pricerange": "free",
        "type": "museum",
        "idMultiWoz": "10",
        "nameMultiWoz": "cambridge artworks"
    },
    {
        "address": "49 newnham road",
        "area": "west",
        "entrance fee": "free",
        "id": "12",
        "location": [
            52.198744,
            0.113364
        ],
        "name": "cambridge book and print gallery",
        "openhours": "it opens from 10:00 a.m. to 5:00 p.m. from tuesday to saturday",
        "phone": "01223694264",
        "postcode": "cb39ey",
        "pricerange": "free",
        "type": "museum"
    },
    {
        "address": "R. do Arco Almedina 11",
        "area": "centre",
        "entrance fee": "free",
        "id": "13",
        "location": [
            40.209081,
            -8.428777
        ],
        "name": "Centro de Arte Contemporânea de Coimbra",
        "openhours": "Aberto todos os dias das 10:00h às 18:00h, exceto às segundas-feiras.",
        "phone": "239828052",
        "postcode": "3000-179",
        "pricerange": "free",
        "type": "museum",
        "idMultiWoz": "13",
        "nameMultiWoz": "cambridge contemporary art"
    },
    {
        "address": "the old pumping station, cheddars lane",
        "area": "east",
        "entrance fee": "5 pounds",
        "id": "14",
        "location": [
            52.21247,
            0.15619
        ],
        "name": "cambridge museum of technology",
        "openhours": "it opens on sunday from 2:00 p.m. to 5:00 p.m.",
        "phone": "01223368650",
        "postcode": "cb58ld",
        "pricerange": "expensive",
        "type": "museum"
    },
    {
        "address": "Calçada Martim de Freitas",
        "area": "centre",
        "entrance fee": "free",
        "id": "15",
        "location": [
            40.205660,
            -8.420802
        ],
        "name": "Jardim Botânico da Universidade de Coimbra",
        "openhours": "Está aberto, todos os dias, das 09:00 às 17:30.",
        "phone": "239855215",
        "postcode": "3000-456",
        "pricerange": "free",
        "type": "park",
        "idMultiWoz": "15",
        "nameMultiWoz": "cambridge university botanic gardens"
    },
    {
        "address": "Av. Emídio Navarro 65",
        "area": "centre",
        "entrance fee": "free",
        "id": "16",
        "location": [
            40.204934,
            -8.427677
        ],
        "name": "Museu da Água",
        "openhours": "Abre das 10:00 às 13:00 e das 14:00 às 18:00 todos os dias, excepto aos fins-de-semana.",
        "phone": "910770073",
        "postcode": "3000-150",
        "pricerange": "free",
        "type": "museum",
        "idMultiWoz": "16",
        "nameMultiWoz": "castle galleries"
    },
    {
        "address": "Praça República",
        "area": "east",
        "entrance fee": "free",
        "id": "17",
        "location": [
            40.209631,
            -8.418091
        ],
        "name": "Jardim da Sereia",
        "openhours": "Aberto 24 horas.",
        "phone": "?",
        "postcode": "3000-019",
        "pricerange": "free",
        "type": "entertainment",
        "idMultiWoz": "17",
        "nameMultiWoz": "Cherry Hinton Hall and Grounds"
    },
    {
        "address": "Praça dos Heróis do Ultramar",
        "area": "east",
        "entrance fee": "entrada pontual de 2.50€ para adultos",
        "id": "18",
        "location": [
            40.205520,
            -8.407560
        ],
        "name": "Complexo Olímpico de Piscinas",
        "openhours": "aberto de segunda a sexta das 06:45 às 23:00, aos sábados das 08:00 às 19:00 e aos domingos das 08:00 às 13:15.",
        "phone": "239796620",
        "postcode": "3030-327",
        "pricerange": "moderate",
        "type": "park",
        "idMultiWoz": "18",
        "nameMultiWoz": "cherry hinton water play"
    },
    {
        "address": "Rua do Brasil 41",
        "area": "centre",
        "entrance fee": "free",
        "id": "19",
        "location": [
            40.214988,
            -8.426998
        ],
        "name": "Colégio Rainha Santa Isabel",
        "openhours": "Aberto todos os dias, 24h.",
        "phone": "239793960",
        "postcode": "3030-175",
        "pricerange": "free",
        "type": "college",
        "idMultiWoz": "19",
        "nameMultiWoz": "christ's college"
    },
    {
        "address": "Bencanta",
        "area": "west",
        "entrance fee": "free",
        "id": "20",
        "location": [
            40.211256,
            -8.452407
        ],
        "name": "Escola Superior Agrária de Coimbra",
        "openhours": "aberto de segunda a sexta das 09:00 às 12:30 e das 14:00 às 18:00.",
        "phone": "239802940",
        "postcode": "3045-601",
        "pricerange": "free",
        "type": "college",
        "idMultiWoz": "20",
        "nameMultiWoz": "churchill college"
    },
    {
        "address": "Estúdio 2, Av. Sá da Bandeira 33 Piso 0",
        "area": "east",
        "entrance fee": "?",
        "id": "21",
        "location": [
            40.211818,
            -8.423288
        ],
        "name": "Casa do Cinema de Coimbra",
        "openhours": "?",
        "phone": "911081317",
        "postcode": "3000-351",
        "pricerange": "?",
        "type": "cinema",
        "idMultiWoz": "21",
        "nameMultiWoz": "cineworld cinema"
    },
    {
        "address": "R. Inácio Duarte 65",
        "area": "east",
        "entrance fee": "free",
        "id": "22",
        "location": [
            40.210371,
            -8.424046
        ],
        "name": "Colégio de Jesus",
        "openhours": "Aberto todos os dias das 10:30h às 18:30h.",
        "phone": "239854350",
        "postcode": "3000-481",
        "pricerange": "free",
        "type": "college",
        "idMultiWoz": "22",
        "nameMultiWoz": "clare college"
    },
    {
        "address": "Polo das Ciências da Saúde, Azinhaga de Santa Comba",
        "area": "east",
        "entrance fee": "free",
        "id": "23",
        "location": [
            40.219670,
            -8.417394
        ],
        "name": "Faculdade de Farmácia da Universidade de Coimbra",
        "openhours": "?",
        "phone": "239488400",
        "postcode": "3000-548",
        "pricerange": "free",
        "type": "college",
        "idMultiWoz": "23",
        "nameMultiWoz": "clare hall"
    },
    {
        "address": "1 station road",
        "area": "centre",
        "entrance fee": "5 pounds",
        "id": "24",
        "location": [
            52.195173,
            0.131644
        ],
        "name": "club salsa",
        "openhours": "it opens at the university social club from 9:30 p.m. to 11:30 p.m. on wednesday, and from 10:00 p.m. to 01:00 a.m. on friday",
        "phone": "07782218745",
        "postcode": "cb12jb",
        "pricerange": "moderate",
        "type": "nightclub"
    },
    {
        "address": "R. Larga 2",
        "area": "centre",
        "entrance fee": "free",
        "id": "25",
        "location": [
            40.208281,
            -8.424232
        ],
        "name": "Faculdade de Medicina",
        "openhours": "Aberto das 08 às 18 todos os dias, exceto sábados e domingos",
        "phone": "239857700",
        "postcode": "3000-370",
        "pricerange": "free",
        "type": "college",
        "idMultiWoz": "25",
        "nameMultiWoz": "corpus christi"
    },
    {
        "address": "regent street",
        "area": "centre",
        "entrance fee": "free",
        "id": "26",
        "location": [
            52.2013777777778,
            0.125194444444444
        ],
        "name": "downing college",
        "openhours": "it opens daily from 9 a.m. to 5 p.m. except during easter term",
        "phone": "01223334860",
        "postcode": "cb21dq",
        "pricerange": "free",
        "type": "college"
    },
    {
        "address": "saint andrew's street",
        "area": "centre",
        "entrance fee": "free",
        "id": "27",
        "location": [
            52.203572,
            0.123778
        ],
        "name": "emmanuel college",
        "openhours": "it opens normally daily from 9 a.m. to 5 p.m. except easter term",
        "phone": "01223334200",
        "postcode": "cb23ap",
        "pricerange": "free",
        "type": "college"
    },
    {
        "address": "R. Manuel Madeira 37",
        "area": "east",
        "entrance fee": "?",
        "id": "28",
        "location": [
            52.21401,
            0.14789
        ],
        "name": "Feijão Verde Fun Park Coimbra",
        "openhours": "?",
        "phone": "01223304705",
        "postcode": "cb58hy",
        "pricerange": "?",
        "type": "entertainment",
        "idMultiWoz": "28",
        "nameMultiWoz": "funky fun house"
    },
    {
        "address": "fulbourn",
        "area": "east",
        "entrance fee": "free",
        "id": "29",
        "location": [
            52.183498,
            0.22186
        ],
        "name": "gallery at twelve a high street",
        "openhours": "?",
        "phone": "01223295264",
        "postcode": "cb15dh",
        "pricerange": "free",
        "type": "museum"
    },
    {
        "address": "trinity street",
        "area": "centre",
        "entrance fee": "free",
        "id": "30",
        "location": [
            52.205861,
            0.117972
        ],
        "name": "gonville and caius college",
        "openhours": "it opens normally daily from 9 a.m. to 5 p.m. except easter term",
        "phone": "01223332400",
        "postcode": "cb21ta",
        "pricerange": "free",
        "type": "college"
    },
    {
        "address": "Rua das Parreiras",
        "area": "centre",
        "entrance fee": "4 euros",
        "id": "31",
        "location": [
            40.202934,
            -8.433431
        ],
        "name": "Mosteiro de Santa Clara",
        "openhours": "De 1 de Abril a 14 de Outubro está aberto de terça-feira a domingo, das 10:00 às 18:00 e de 15 de Outubro a 31 de Março de terça-feira a domingo das 09:00 às 17:00",
        "phone": "239801160",
        "postcode": "3040-266",
        "pricerange": "cheap",
        "type": "architecture",
        "idMultiWoz": "31",
        "nameMultiWoz": "Great saint mary's church"
    },
    {
        "address": "Praça Comércio 57",
        "area": "centre",
        "entrance fee": "free",
        "id": "32",
        "location": [
            40.209623,
            -8.429345
        ],
        "name": "Igreja de São Tiago",
        "openhours": "Aberto todos os dias das 08:00h às 20:00h.",
        "phone": "239857500",
        "postcode": "3000-180",
        "pricerange": "free",
        "type": "architecture",
        "idMultiWoz": "32",
        "nameMultiWoz": "holy trinity church"
    },
    {
        "address": "R. Coutinhos 35",
        "area": "centre",
        "entrance fee": "free",
        "id": "33",
        "location": [
            40.209974,
            -8.427920
        ],
        "name": "Colégio de São Caetano",
        "openhours": "",
        "phone": "239823405",
        "postcode": "3000-129",
        "pricerange": "free",
        "type": "college",
        "idMultiWoz": "33",
        "nameMultiWoz": "hughes hall"
    },
    {
        "address": "jesus lane",
        "area": "centre",
        "entrance fee": "free",
        "id": "34",
        "location": [
            52.209353,
            0.125342
        ],
        "name": "jesus college",
        "openhours": "it opens normally daily from 9 a.m. to 5 p.m. except easter term",
        "phone": "01223339485",
        "postcode": "cb58bl",
        "pricerange": "free",
        "type": "college"
    },
    {
        "address": "between victoria road and the river",
        "area": "north",
        "entrance fee": "?",
        "id": "35",
        "location": [
            52.220328,
            0.115149
        ],
        "name": "jesus green outdoor pool",
        "openhours": "?",
        "phone": "01223302579",
        "postcode": "cb43px",
        "pricerange": "?",
        "type": "swimmingpool"
    },
    {
        "address": "1 wheeler street",
        "area": "centre",
        "entrance fee": "5 pounds",
        "id": "36",
        "location": [
            52.204192,
            0.119187
        ],
        "name": "kambar",
        "openhours": "it opens from 10:00 p.m. to 4:00 a.m. depending on whether there is an event on or not",
        "phone": "01223842725",
        "postcode": "cb23qb",
        "pricerange": "moderate",
        "type": "nightclub"
    },
    {
        "address": "Largo Marquês de Pombal",
        "area": "east",
        "entrance fee": "12.5",
        "id": "37",
        "location": [
            40.1237,
            -8.2525
        ],
        "name": "Museu da Ciência da Universidade de Coimbra",
        "openhours": "aberto todos os dias das 09:00h às 13:00h e das 14:00h às 17:00h",
        "phone": "239240870",
        "postcode": "3000-217",
        "pricerange": "moderate",
        "type": "museum",
        "idMultiWoz": "37",
        "nameMultiWoz": "kettle's yard"
    },
    {
        "address": "king's parade",
        "area": "centre",
        "entrance fee": "free",
        "id": "38",
        "location": [
            52.204289,
            0.117269
        ],
        "name": "king's college",
        "openhours": "it opens normally daily from 9 a.m. to 5 p.m. except easter term",
        "phone": "01223331100",
        "postcode": "cb21st",
        "pricerange": "free",
        "type": "college"
    },
    {
        "address": "Rua António Sérgio",
        "area": "north",
        "entrance fee": "?",
        "id": "39",
        "location": [
            0,
            0
        ],
        "name": "Piscinas Municipais Rui Abreu",
        "openhours": "?",
        "phone": "239 499 120",
        "postcode": "3020-305",
        "pricerange": "?",
        "type": "swimmingpool",
        "idMultiWoz": "39",
        "nameMultiWoz": "kings hedges learner pool"
    },
    {
        "address": "little saint mary's lane",
        "area": "centre",
        "entrance fee": "free",
        "id": "40",
        "location": [
            52.2005111111111,
            0.119883333333333
        ],
        "name": "little saint mary's church",
        "openhours": "it opens normally daily from 9 a.m. to 5 p.m.",
        "phone": "01223366202",
        "postcode": "cb21qy",
        "pricerange": "free",
        "type": "architecture"
    },
    {
        "address": "23 high street, fen ditton",
        "area": "west",
        "entrance fee": "free",
        "id": "41",
        "location": [
            52.222053,
            0.095086
        ],
        "name": "lynne strover gallery",
        "openhours": "it opens from 10:00 a.m. to 5:00 p.m. thursday to saturday",
        "phone": "01223295264",
        "postcode": "cb30aq",
        "pricerange": "free",
        "type": "museum"
    },
    {
        "address": "magdalene street",
        "area": "west",
        "entrance fee": "free",
        "id": "42",
        "location": [
            52.210403,
            0.115803
        ],
        "name": "magdalene college",
        "openhours": "it opens normally daily from 9 a.m. to 5 p.m. except easter term",
        "phone": "01223332138",
        "postcode": "cb30ag",
        "pricerange": "free",
        "type": "college"
    },
    {
        "address": "",
        "area": "north",
        "entrance fee": "free",
        "id": "43",
        "location": [
            0,
            0
        ],
        "name": "Parque Verde do Mondego",
        "openhours": "always",
        "phone": "01223420060",
        "postcode": "cb46az",
        "pricerange": "free",
        "type": "park",
        "idMultiWoz": "43",
        "nameMultiWoz": "milton country park"
    },
    {
        "address": "Praça República",
        "area": "centre",
        "entrance fee": "?",
        "id": "44",
        "location": [
            40.209535,
            -8.420371
        ],
        "name": "Teatro Académico de Gil Vicente",
        "openhours": "Aberto todos os dias das 10:00h às 02:00h.",
        "phone": "239855630",
        "postcode": "3000-343",
        "pricerange": "?",
        "type": "theatre",
        "idMultiWoz": "44",
        "nameMultiWoz": "mumford theatre"
    },
    {
        "address": "university of cambridge, downing street",
        "area": "centre",
        "entrance fee": "free",
        "id": "45",
        "location": [
            52.205261,
            0.11664
        ],
        "name": "museum of archaelogy and anthropology",
        "openhours": "it opens from 10:30 a.m. to 4:30 p.m. tuesday to saturday",
        "phone": "01223333516",
        "postcode": "cb23dz",
        "pricerange": "free",
        "type": "museum"
    },
    {
        "address": "sidgwick avenue",
        "area": "west",
        "entrance fee": "free",
        "id": "46",
        "location": [
            52.20987,
            0.111565
        ],
        "name": "museum of classical archaeology",
        "openhours": "it opens from 10:00 a.m. to 5:00 p.m. monday to friday",
        "phone": "01223335153",
        "postcode": "cb39da",
        "pricerange": "free",
        "type": "museum"
    },
    {
        "address": "Rua Quebra Costas 45",
        "area": "south",
        "entrance fee": "?",
        "id": "47",
        "location": [
            40.209165,
            -8.427844
        ],
        "name": "Quebra bar",
        "openhours": "Está aberto de segunda a sexta das 12:00 até às 04:00 e aos sábados das 14:00 às 00:00.",
        "phone": "239821661",
        "postcode": "3000-088",
        "pricerange": "?",
        "type": "entertainment",
        "idMultiWoz": "47",
        "nameMultiWoz": "nusha"
    },
    {
        "address": "Rua do Norte 37",
        "area": "centre",
        "entrance fee": "free",
        "id": "48",
        "location": [
            40.207740,
            -8.426082
        ],
        "name": "Paço das Escolas",
        "openhours": "Aberto todos os dias das 09:00h às 19:00h.",
        "phone": "239242744",
        "postcode": "3000-515",
        "pricerange": "free",
        "type": "architecture",
        "idMultiWoz": "48",
        "nameMultiWoz": "old schools"
    },
    {
        "address": "Parque Residencial de S. Martinho",
        "area": "centre",
        "entrance fee": "?",
        "id": "49",
        "location": [
            40.209735,
            -8.453801
        ],
        "name": "Piscinas Municipais Luís Lopes da Conceição",
        "openhours": "?",
        "phone": "239801090",
        "postcode": "3045-160",
        "pricerange": "?",
        "type": "swimmingpool",
        "idMultiWoz": "49",
        "nameMultiWoz": "parkside pools"
    },
    {
        "address": "trumpington street",
        "area": "centre",
        "entrance fee": "free",
        "id": "50",
        "location": [
            52.202611,
            0.120658
        ],
        "name": "pembroke college",
        "openhours": "any time except may and june",
        "phone": "01223338100",
        "postcode": "cb21rf",
        "pricerange": "free",
        "type": "college"
    },
    {
        "address": "girton college, huntingdon road",
        "area": "west",
        "entrance fee": "free",
        "id": "51",
        "location": [
            52.228375,
            0.0837527777777778
        ],
        "name": "people's portraits exhibition at girton college",
        "openhours": "it opens from 2:00 p.m. to 4:00 p.m. daily from february to july",
        "phone": "01223338901",
        "postcode": "cb3ojg",
        "pricerange": "free",
        "type": "museum"
    },
    {
        "address": "10 king s parade",
        "area": "centre",
        "entrance fee": "free",
        "id": "52",
        "location": [
            52.2034781571435,
            0.119176917855308
        ],
        "name": "primavera",
        "openhours": "it opens from 11:00 a.m. to 4:30 p.m. on sunday, from 10:00 a.m. to 5:00 p.m. from monday to friday, and from 10:00 a.m. to 5:30 p.m. on saturday",
        "phone": "01223357708",
        "postcode": "cb21sj",
        "pricerange": "free",
        "type": "museum"
    },
    {
        "address": " R. do Norte 23",
        "area": "west",
        "entrance fee": "2.50 $",
        "id": "53",
        "location": [
            0,
            0
        ],
        "name": "Torre da Universidade de Coimbra",
        "openhours": "-----",
        "phone": "01223335511",
        "postcode": "cb39et",
        "pricerange": "moderate",
        "type": "college",
        "idMultiWoz": "53",
        "nameMultiWoz": "queens' college"
    },
    {
        "address": "R. Olivença 21",
        "area": "centre",
        "entrance fee": "free",
        "id": "54",
        "location": [
            40.205507,
            -8.426187
        ],
        "name": "Galerias Topazio",
        "openhours": "Aberto todos os dias das 10:00h às 19:30h.",
        "phone": "968602323",
        "postcode": "3000-017",
        "pricerange": "free",
        "type": "museum",
        "idMultiWoz": "54",
        "nameMultiWoz": "regency gallery"
    },
    {
        "address": "Parque Manuel Braga",
        "area": "north",
        "entrance fee": "?",
        "id": "55",
        "location": [
            40.206087,
            -8.428863
        ],
        "name": "Serranas do Mondego",
        "openhours": "?",
        "phone": "927287280",
        "postcode": "3000-337",
        "pricerange": "?",
        "type": "boat",
        "idMultiWoz": "55",
        "nameMultiWoz": "riverboat georgina"
    },
    {
        "address": "R. Dr. Manuel Rodrigues 5",
        "area": "centre",
        "entrance fee": "free",
        "id": "56",
        "location": [
            40.214008,
            -8.432018
        ],
        "name": "Casa da Mutualidade",
        "openhours": "aberto de segunda a sexta das 09:00 às 13:00 e das 14:00 às 18:00.",
        "phone": "239828055",
        "postcode": "3000-258",
        "pricerange": "free",
        "type": "museum",
        "idMultiWoz": "56",
        "nameMultiWoz": "ruskin gallery"
    },
    {
        "address": "the belfast yard, coldham's road",
        "area": "east",
        "entrance fee": "free",
        "id": "57",
        "location": [
            52.20858,
            0.148702
        ],
        "name": "saint barnabas press gallery",
        "openhours": "?",
        "phone": "01223902116",
        "postcode": "cb13ew",
        "pricerange": "free",
        "type": "museum"
    },
    {
        "address": "Rua do Brasil 41",
        "area": "centre",
        "entrance fee": "free",
        "id": "58",
        "location": [
            40.200248,
            -8.421677
        ],
        "name": "Colégio Rainha Santa Isabel",
        "openhours": "Aberto 24 horas.",
        "phone": "239793960",
        "postcode": "3030-175",
        "pricerange": "free",
        "type": "college",
        "idMultiWoz": "58",
        "nameMultiWoz": "saint catharine's college"
    },
    {
        "address": "Praça Dom Dinis",
        "area": "centre",
        "entrance fee": "2.5 $",
        "id": "59",
        "location": [
            0,
            0
        ],
        "name": "Real Colégio das Artes e Humanidades",
        "openhours": "---------------",
        "phone": "----",
        "postcode": "----",
        "pricerange": "-----",
        "type": "college",
        "idMultiWoz": "59",
        "nameMultiWoz": "saint john's college"
    },
    {
        "address": "lensfield road",
        "area": "centre",
        "entrance fee": "free",
        "id": "60",
        "location": [
            52.19806,
            0.123185
        ],
        "name": "scott polar museum",
        "openhours": "it opens from 10:00 a.m. to 4:00 p.m. from tuesday to saturday",
        "phone": "01223336540",
        "postcode": "cb21er",
        "pricerange": "free",
        "type": "museum"
    },
    {
        "address": "granta place, mill lane",
        "area": "centre",
        "entrance fee": "?",
        "id": "61",
        "location": [
            52.200975,
            0.116298
        ],
        "name": "scudamores punting co",
        "openhours": "?",
        "phone": "01223359750",
        "postcode": "cb21rs",
        "pricerange": "?",
        "type": "boat"
    },
    {
        "address": "fen causeway, newnham road,",
        "area": "south",
        "entrance fee": "free",
        "id": "62",
        "location": [
            52.17674,
            0.14559
        ],
        "name": "sheep's green and lammas land park fen causeway",
        "openhours": "it is open from may to sept",
        "phone": "01223302580",
        "postcode": "cb22ad",
        "pricerange": "free",
        "type": "park"
    },
    {
        "address": "sidney street",
        "area": "centre",
        "entrance fee": "free",
        "id": "63",
        "location": [
            52.207464,
            0.121342
        ],
        "name": "sidney sussex college",
        "openhours": "it opens daily from 9 a.m. to 5 p.m. except during easter term",
        "phone": "01223338800",
        "postcode": "cb23hu",
        "pricerange": "free",
        "type": "college"
    },
    {
        "address": "1-6 corn exchange street",
        "area": "centre",
        "entrance fee": "4 pounds",
        "id": "64",
        "location": [
            52.203878,
            0.12044
        ],
        "name": "soul tree nightclub",
        "openhours": "it opens from 9:30 p.m. to 02:00 a.m. from sunday to tuesday, from 9:00 p.m. to 02:00 a.m. on wednesday, and from 9:00 p.m. to 02:30 a.m. from thursday to saturday",
        "phone": "01223477900",
        "postcode": "cb23qf",
        "pricerange": "cheap",
        "type": "nightclub"
    },
    {
        "address": "R. Bartolomeu Dias 22",
        "area": "south",
        "entrance fee": "?",
        "id": "65",
        "location": [
            40.198478,
            -8.407231
        ],
        "name": "Tic Tac Boom Escape Room",
        "openhours": "De segunda a sexta abre às 18h30 e fecha às 22h30. Aos sábados e domingos abre às 10h30 e fecha às 22h30.",
        "phone": "918381331",
        "postcode": "3030-041",
        "pricerange": "expensive",
        "type": "entertainment",
        "idMultiWoz": "65",
        "nameMultiWoz": "tenpin"
    },
    {
        "address": "R. Padre António Vieira, nº1",
        "area": "centre",
        "entrance fee": "?",
        "id": "66",
        "location": [
            40.209846,
            -8.420960
        ],
        "name": "Círculo de Iniciação Teatral da Academia de Coimbra",
        "openhours": "?",
        "phone": "933956833",
        "postcode": "3000-315",
        "pricerange": "?",
        "type": "theatre",
        "idMultiWoz": "66",
        "nameMultiWoz": "the cambridge corn exchange"
    },
    {
        "address": "Rio Mondego",
        "area": "centre",
        "entrance fee": "free",
        "id": "67",
        "location": [
            40.206435,
            -8.430249
        ],
        "name": "Ponte de Santa Clara",
        "openhours": "Aberto todos os dias, 24h.",
        "phone": "?",
        "postcode": "?",
        "pricerange": "free",
        "type": "boat",
        "idMultiWoz": "67",
        "nameMultiWoz": "the cambridge punter"
    },
    {
        "address": "Av. da Guarda Inglesa",
        "area": "east",
        "entrance fee": "?",
        "id": "68",
        "location": [
            0,
            0
        ],
        "name": "Estádio Universitário de Coimbra",
        "openhours": " 09h00 ",
        "phone": "239 247 671",
        "postcode": "3040-256",
        "pricerange": "?",
        "type": "mutliple sports",
        "idMultiWoz": "68",
        "nameMultiWoz": "the cherry hinton village centre"
    },
    {
        "address": "8 market passage",
        "area": "centre",
        "entrance fee": "5 pounds",
        "id": "69",
        "location": [
            52.206144,
            0.120283
        ],
        "name": "the fez club",
        "openhours": "it opens on monday from 9 p.m. to 2 a.m.. it is closed on tuesday. from wednesday to saturday it opens from 9 p.m. to 2 a.m. and it is closed on sunday",
        "phone": "01223519224",
        "postcode": "cb23hx",
        "pricerange": "moderate",
        "type": "nightclub"
    },
    {
        "address": "trumpington street",
        "area": "centre",
        "entrance fee": "free",
        "id": "70",
        "location": [
            52.19855,
            0.121785
        ],
        "name": "the fitzwilliam museum",
        "openhours": "from tuesday to saturday it opens from 10 a.m. to 5 p.m. while on sunday, monday and bank holidays it opens from 12 to 5 p.m.",
        "phone": "01223332900",
        "postcode": "cb21rb",
        "pricerange": "free",
        "type": "museum"
    },
    {
        "address": "Estúdio 2, Av. Sá da Bandeira 33 Piso 0",
        "area": "south",
        "entrance fee": "?",
        "id": "71",
        "location": [
            40.211910,
            -8.423361
        ],
        "name": "Casa do Cinema de Coimbra",
        "openhours": "?",
        "phone": "911081317",
        "postcode": "3000-351",
        "pricerange": "?",
        "type": "theatre",
        "idMultiWoz": "71",
        "nameMultiWoz": "the junction"
    },
    {
        "address": "2 norfolk street",
        "area": "centre",
        "entrance fee": "?",
        "id": "72",
        "location": [
            52.204746,
            0.136515
        ],
        "name": "the man on the moon",
        "openhours": "?",
        "phone": "01223474144",
        "postcode": "cb12lf",
        "pricerange": "?",
        "type": "concerthall"
    },
    {
        "address": "R. Moinho de Vento lote 6",
        "area": "south",
        "entrance fee": "?",
        "id": "73",
        "location": [
            40.172749,
            -8.452760
        ],
        "name": "Cobra Dourada",
        "openhours": "Aberto de terça a sábado das 23:00 às 05:00. Às segundas e domingos encerrado.",
        "phone": "913593284",
        "postcode": "3040-573",
        "pricerange": "moderate",
        "type": "nightclub",
        "idMultiWoz": "73",
        "nameMultiWoz": "the place"
    },
    {
        "address": "trinity street",
        "area": "centre",
        "entrance fee": "1 pound",
        "id": "74",
        "location": [
            52.207081,
            0.117622
        ],
        "name": "trinity college",
        "openhours": "it opens normally daily from 9 a.m. to 5 p.m. except easter term",
        "phone": "01223338400",
        "postcode": "cb21tq",
        "pricerange": "cheap",
        "type": "college"
    },
    {
        "address": " Rua General Humberto Delgado, nº 207 e 211",
        "area": "centre",
        "entrance fee": "?",
        "id": "75",
        "location": [
            52.20571,
            0.131061
        ],
        "name": "Cinemas Nos Alma Shopping",
        "openhours": "?",
        "phone": "08712240240",
        "postcode": "cb11ps",
        "pricerange": "?",
        "type": "cinema",
        "idMultiWoz": "75",
        "nameMultiWoz": "vue cinema"
    },
    {
        "address": "Av. Emídio Navarro",
        "area": "south",
        "entrance fee": "free",
        "id": "76",
        "location": [
            40.204864,
            -8.427234
        ],
        "name": "Parque Dr. Manuel Braga",
        "openhours": "always",
        "phone": "234857500",
        "postcode": "3000-150",
        "pricerange": "free",
        "type": "park",
        "idMultiWoz": "76",
        "nameMultiWoz": "wandlebury country park"
    },
    {
        "address": "unit 8, viking way, bar hill",
        "area": "west",
        "entrance fee": "?",
        "id": "77",
        "location": [
            52.254,
            0.016478
        ],
        "name": "whale of a time",
        "openhours": "it opens from 09:30 a.m. to 6:00 p.m. daily",
        "phone": "01954781018",
        "postcode": "cb238el",
        "pricerange": "?",
        "type": "entertainment"
    },
    {
        "address": "R. Fernando Pessoa 3, Coimbra",
        "area": "centre",
        "entrance fee": "free",
        "id": "78",
        "location": [
            52.203117,
            0.118928
        ],
        "name": "Museu Miguel Torga",
        "openhours": "",
        "phone": "239781345",
        "postcode": "cb23rh",
        "pricerange": "free",
        "type": "museum",
        "idMultiWoz": "78",
        "nameMultiWoz": "whipple museum of the history of science"
    },
    {
        "address": "gwydir street, no. 5 dale's brewery",
        "area": "centre",
        "entrance fee": "free",
        "id": "79",
        "location": [
            52.2002,
            0.1385
        ],
        "name": "williams art and antiques",
        "openhours": "it opens from 11:00 a.m. to 6:00 p.m. from tuesday to friday, from 11:00 a.m. to 5:00 p.m. on saturday and sunday, and it is closed on monday",
        "phone": "01223311687",
        "postcode": "cb12lj",
        "pricerange": "free",
        "type": "museum"
    }
]
